{
  "type": "FeatureCollection",
  "features": [
    {
      "type": "Feature",
      "properties": {
        "stop_name": "Temple Meads Station",
        "stop_code": "TM001",
        "routes": ["m1", "m2", "18", "42"],
        "accessibility": "Wheelchair accessible",
        "shelter": true,
        "real_time_info": true
      },
      "geometry": {
        "type": "Point",
        "coordinates": [-2.5766, 51.4490]
      }
    },
    {
      "type": "Feature",
      "properties": {
        "stop_name": "Cabot Circus",
        "stop_code": "CC001",
        "routes": ["5", "18", "42", "620"],
        "accessibility": "Wheelchair accessible",
        "shelter": true,
        "real_time_info": true
      },
      "geometry": {
        "type": "Point",
        "coordinates": [-2.5850, 51.4600]
      }
    },
    {
      "type": "Feature",
      "properties": {
        "stop_name": "University of Bristol",
        "stop_code": "UB001",
        "routes": ["m1", "18", "620"],
        "accessibility": "Wheelchair accessible",
        "shelter": true,
        "real_time_info": true
      },
      "geometry": {
        "type": "Point",
        "coordinates": [-2.6030, 51.4585]
      }
    },
    {
      "type": "Feature",
      "properties": {
        "stop_name": "Bath Spa Station",
        "stop_code": "BS001",
        "routes": ["4", "7", "18"],
        "accessibility": "Wheelchair accessible",
        "shelter": true,
        "real_time_info": false
      },
      "geometry": {
        "type": "Point",
        "coordinates": [-2.3597, 51.3758]
      }
    },
    {
      "type": "Feature",
      "properties": {
        "stop_name": "Weston-super-Mare High Street",
        "stop_code": "WS001",
        "routes": ["1", "4", "20"],
        "accessibility": "Limited accessibility",
        "shelter": true,
        "real_time_info": false
      },
      "geometry": {
        "type": "Point",
        "coordinates": [-2.9772, 51.3406]
      }
    }
  ]
}
